[
  {
    "id": 1,
    "title": "Founding",
    "description": "Company founded<br><img src='test.png' />",
    "lat": 51.5074,
    "lon": -0.1278,
    "date": "2010-03-15",
    "city": "London",
    "country": "UK"
  },
  {
    "id": 2,
    "title": "First Product",
    "description": "Launched first product",
    "lat": 40.7128,
    "lon": -74.0060,
    "date": "2012-07-01",
    "city": "New York",
    "country": "USA"
  },
  {
    "id": 3,
    "title": "Expansion",
    "description": "Opened new office",
    "lat": 35.6895,
    "lon": 139.6917,
    "date": "2015-11-20",
    "city": "Tokyo",
    "country": "Japan"
  },
  {
    "id": 4,
    "title": "Milestone",
    "description": "1M users",
    "lat": 48.8566,
    "lon": 2.3522,
    "date": "2018-05-05",
    "city": "Paris",
    "country": "France"
  },
  {
    "id": 5,
    "title": "Conference",
    "description": "Presented at conference",
    "lat": 34.0522,
    "lon": -118.2437,
    "date": "2020-09-10",
    "city": "Los Angeles",
    "country": "USA"
  },
  {
    "id": 6,
    "title": "New Feature",
    "description": "Released timeline feature",
    "lat": 52.52,
    "lon": 13.4050,
    "date": "2022-01-25",
    "city": "Berlin",
    "country": "Germany"
  },
  {
    "id": 7,
    "title": "Award",
    "description": "Received industry award",
    "lat": -33.8688,
    "lon": 151.2093,
    "date": "2023-08-12",
    "city": "Sydney",
    "country": "Australia"
  },
  {
    "id": 8,
    "title": "Latest",
    "description": "Latest event",
    "lat": 37.7749,
    "lon": -122.4194,
    "date": "2025-01-10",
    "city": "San Francisco",
    "country": "USA"
  },
  {
    "id": 9,
    "title": "Partnership",
    "description": "Strategic partnership announced",
    "lat": 43.6532,
    "lon": -79.3832,
    "date": "2026-03-15",
    "city": "Toronto",
    "country": "Canada"
  },
  {
    "id": 10,
    "title": "Funding Round",
    "description": "Series B funding secured",
    "lat": 1.3521,
    "lon": 103.8198,
    "date": "2026-06-20",
    "city": "Singapore",
    "country": "Singapore"
  },
  {
    "id": 11,
    "title": "Product Update",
    "description": "Major product update released",
    "lat": 52.3676,
    "lon": 4.9041,
    "date": "2026-09-10",
    "city": "Amsterdam",
    "country": "Netherlands"
  },
  {
    "id": 12,
    "title": "Team Expansion",
    "description": "Hired 100 new employees",
    "lat": 19.0760,
    "lon": 72.8777,
    "date": "2026-12-05",
    "city": "Mumbai",
    "country": "India"
  },
  {
    "id": 13,
    "title": "Acquisition",
    "description": "Acquired competitor startup",
    "lat": 22.3193,
    "lon": 114.1694,
    "date": "2027-02-28",
    "city": "Hong Kong",
    "country": "China"
  },
  {
    "id": 14,
    "title": "Rebranding",
    "description": "Complete brand refresh",
    "lat": 41.3851,
    "lon": 2.1734,
    "date": "2027-05-15",
    "city": "Barcelona",
    "country": "Spain"
  },
  {
    "id": 15,
    "title": "Global Launch",
    "description": "Launched in 50 new countries",
    "lat": 25.2048,
    "lon": 55.2708,
    "date": "2027-08-22",
    "city": "Dubai",
    "country": "UAE"
  },
  {
    "id": 16,
    "title": "Sustainability Initiative",
    "description": "Carbon neutral commitment",
    "lat": 59.3293,
    "lon": 18.0686,
    "date": "2027-11-10",
    "city": "Stockholm",
    "country": "Sweden"
  },
  {
    "id": 17,
    "title": "AI Integration",
    "description": "AI-powered features added",
    "lat": 37.5665,
    "lon": 126.9780,
    "date": "2028-01-30",
    "city": "Seoul",
    "country": "South Korea"
  },
  {
    "id": 18,
    "title": "Mobile App",
    "description": "Native mobile app launched",
    "lat": -23.5505,
    "lon": -46.6333,
    "date": "2028-04-18",
    "city": "SÃ£o Paulo",
    "country": "Brazil"
  },
  {
    "id": 19,
    "title": "Data Center",
    "description": "New data center opened",
    "lat": 50.1109,
    "lon": 8.6821,
    "date": "2028-07-05",
    "city": "Frankfurt",
    "country": "Germany"
  },
  {
    "id": 20,
    "title": "Open Source",
    "description": "Core technology open sourced",
    "lat": -33.9249,
    "lon": 18.4241,
    "date": "2028-09-20",
    "city": "Cape Town",
    "country": "South Africa"
  },
  {
    "id": 21,
    "title": "Virtual Reality",
    "description": "VR experience launched",
    "lat": 30.2672,
    "lon": -97.7431,
    "date": "2028-12-08",
    "city": "Austin",
    "country": "USA"
  },
  {
    "id": 22,
    "title": "Blockchain",
    "description": "Blockchain integration",
    "lat": 47.3769,
    "lon": 8.5417,
    "date": "2029-02-25",
    "city": "Zurich",
    "country": "Switzerland"
  },
  {
    "id": 23,
    "title": "Cloud Migration",
    "description": "Full cloud migration completed",
    "lat": -37.8136,
    "lon": 144.9631,
    "date": "2029-05-12",
    "city": "Melbourne",
    "country": "Australia"
  },
  {
    "id": 24,
    "title": "Cybersecurity",
    "description": "Enhanced security features",
    "lat": 32.0853,
    "lon": 34.7818,
    "date": "2029-07-30",
    "city": "Tel Aviv",
    "country": "Israel"
  },
  {
    "id": 25,
    "title": "IoT",
    "description": "IoT platform launched",
    "lat": 12.9716,
    "lon": 77.5946,
    "date": "2029-10-15",
    "city": "Bangalore",
    "country": "India"
  },
  {
    "id": 26,
    "title": "E-commerce",
    "description": "E-commerce integration",
    "lat": 31.2304,
    "lon": 121.4737,
    "date": "2030-01-08",
    "city": "Shanghai",
    "country": "China"
  },
  {
    "id": 27,
    "title": "Remote Work",
    "description": "Remote work tools enhanced",
    "lat": 49.2827,
    "lon": -123.1207,
    "date": "2030-03-25",
    "city": "Vancouver",
    "country": "Canada"
  },
  {
    "id": 28,
    "title": "Future Vision",
    "description": "2030 vision announced",
    "lat": 64.1466,
    "lon": -21.9426,
    "date": "2030-06-10",
    "city": "Reykjavik",
    "country": "Iceland"
  }
]